[
  {
    "name": "林家素食",
    "address": "彰化縣彰化市永樂街145-147號",
    "lat": null,
    "lng": null
  },
  {
    "name": "天公壇素食麵",
    "address": "彰化縣彰化市太平街3號",
    "lat": null,
    "lng": null
  },
  {
    "name": "無名素食麵(成功路)",
    "address": "彰化縣彰化市成功路200號",
    "lat": null,
    "lng": null
  },
  {
    "name": "明道素食麵",
    "address": "彰化縣彰化市中民街61號",
    "lat": null,
    "lng": null
  },
  {
    "name": "永安街素食麵",
    "address": "彰化縣彰化市永安街15號",
    "lat": null,
    "lng": null
  },
  {
    "name": "素食阿章",
    "address": "彰化縣彰化市中正路二段10號",
    "lat": null,
    "lng": null
  },
  {
    "name": "大埔素食麵",
    "address": "彰化縣彰化市大埔路500號",
    "lat": null,
    "lng": null
  },
  {
    "name": "員林素食麵",
    "address": "彰化縣員林市大同路二段100號",
    "lat": null,
    "lng": null
  },
  {
    "name": "光明街素食麵",
    "address": "彰化縣員林市光明街123號",
    "lat": null,
    "lng": null
  },
  {
    "name": "員林市場素食麵",
    "address": "彰化縣員林市惠民街1號 (員林市場內)",
    "lat": null,
    "lng": null
  },
  {
    "name": "大義街素食麵",
    "address": "彰化縣員林市大義街20號",
    "lat": null,
    "lng": null
  },
  {
    "name": "員基醫院旁素食麵",
    "address": "彰化縣員林市中正路234號",
    "lat": null,
    "lng": null
  },
  {
    "name": "鹿港素食麵",
    "address": "彰化縣鹿港鎮中山路10號",
    "lat": null,
    "lng": null
  },
  {
    "name": "天后宮素食麵",
    "address": "彰化縣鹿港鎮天后宮廣場旁",
    "lat": null,
    "lng": null
  },
  {
    "name": "鹿港市場素食麵",
    "address": "彰化縣鹿港鎮民族路198號 (鹿港市場內)",
    "lat": null,
    "lng": null
  },
  {
    "name": "鹿港大眾爺廟素食麵",
    "address": "彰化縣鹿港鎮民權路20號",
    "lat": null,
    "lng": null
  },
  {
    "name": "鹿港鎮公所素食麵",
    "address": "彰化縣鹿港鎮民權路100號",
    "lat": null,
    "lng": null
  },
  {
    "name": "北斗素食麵",
    "address": "彰化縣北斗鎮斗苑路一段10號",
    "lat": null,
    "lng": null
  },
  {
    "name": "北斗奠安宮素食麵",
    "address": "彰化縣北斗鎮宮前街20號",
    "lat": null,
    "lng": null
  },
  {
    "name": "北斗市場素食麵",
    "address": "彰化縣北斗鎮斗苑路200號 (北斗市場內)",
    "lat": null,
    "lng": null
  },
  {
    "name": "和美素食麵",
    "address": "彰化縣和美鎮彰美路五段10號",
    "lat": null,
    "lng": null
  },
  {
    "name": "溪湖素食麵",
    "address": "彰化縣溪湖鎮員鹿路三段100號",
    "lat": null,
    "lng": null
  },
  {
    "name": "田中素食麵",
    "address": "彰化縣田中鎮復興路50號",
    "lat": null,
    "lng": null
  },
  {
    "name": "永靖素食麵",
    "address": "彰化縣永靖鄉永靖街30號",
    "lat": null,
    "lng": null
  },
  {
    "name": "埔心素食麵",
    "address": "彰化縣埔心鄉員鹿路二段200號",
    "lat": null,
    "lng": null
  },
  {
    "name": "蚵ㄚ仁",
    "address": "彰化縣彰化市中正路二段207號",
    "lat": null,
    "lng": null
  },
  {
    "name": "阿謀爌肉飯",
    "address": "彰化縣彰化市長順街27號",
    "lat": null,
    "lng": null
  },
  {
    "name": "魚市場爌肉飯(早)",
    "address": "彰化縣彰化市華山路246號",
    "lat": null,
    "lng": null
  },
  {
    "name": "老朱爌肉飯",
    "address": "彰化縣彰化市中民街31號",
    "lat": null,
    "lng": null
  },
  {
    "name": "天公壇爌肉飯",
    "address": "彰化縣彰化市陳稜路130號",
    "lat": null,
    "lng": null
  },
  {
    "name": "阿泉爌肉飯",
    "address": "彰化縣彰化市成功路216號",
    "lat": null,
    "lng": null
  },
  {
    "name": "阿谷爌肉飯",
    "address": "彰化縣彰化市林森路140巷2號",
    "lat": null,
    "lng": null
  },
  {
    "name": "阿永爌肉飯(彰南店)",
    "address": "彰化縣彰化市彰南路一段280號",
    "lat": null,
    "lng": null
  },
  {
    "name": "阿全爌肉飯",
    "address": "彰化縣彰化市自強路224號",
    "lat": null,
    "lng": null
  },
  {
    "name": "榕樹下爌肉飯",
    "address": "彰化縣彰化市彰美路一段132巷3號",
    "lat": null,
    "lng": null
  },
  {
    "name": "木樹爌肉飯",
    "address": "彰化縣彰化市三民路342號",
    "lat": null,
    "lng": null
  },
  {
    "name": "安上利咖哩飯",
    "address": "彰化縣彰化市永樂街152號",
    "lat": null,
    "lng": null
  },
  {
    "name": "阿欽爌肉飯",
    "address": "彰化縣彰化市太平街106號",
    "lat": null,
    "lng": null
  },
  {
    "name": "永成爌肉飯",
    "address": "彰化縣彰化市中正路一段483號",
    "lat": null,
    "lng": null
  },
  {
    "name": "魚市場爌肉飯(夜市)",
    "address": "彰化縣彰化市中正路二段320號",
    "lat": null,
    "lng": null
  },
  {
    "name": "林爌肉飯",
    "address": "彰化縣彰化市民族路483號前",
    "lat": null,
    "lng": null
  },
  {
    "name": "三和爌肉飯",
    "address": "彰化縣彰化市民族路476號",
    "lat": null,
    "lng": null
  },
  {
    "name": "天隆爌肉飯",
    "address": "彰化縣彰化市民權路247巷52號",
    "lat": null,
    "lng": null
  },
  {
    "name": "府前阿章爌肉飯",
    "address": "彰化縣彰化市南郭路一段6號",
    "lat": null,
    "lng": null
  },
  {
    "name": "阿本爌肉飯(夜)",
    "address": "彰化縣彰化市中山路二段404號前",
    "lat": null,
    "lng": null
  },
  {
    "name": "阿正爌肉飯",
    "address": "彰化縣彰化市永福街35號",
    "lat": null,
    "lng": null
  },
  {
    "name": "阿璋爌肉飯",
    "address": "彰化縣彰化市民族路500號",
    "lat": null,
    "lng": null
  },
  {
    "name": "夜市爌肉飯",
    "address": "彰化縣彰化市民族路400號",
    "lat": null,
    "lng": null
  },
  {
    "name": "成功路爌肉飯",
    "address": "彰化縣彰化市成功路100號",
    "lat": 30.2955263,
    "lng": 120.1649266
  },
  {
    "name": "大桶爌肉飯",
    "address": "彰化縣彰化市民族路436號",
    "lat": null,
    "lng": null
  },
  {
    "name": "辭修路爌肉飯",
    "address": "彰化縣彰化市辭修路300號",
    "lat": null,
    "lng": null
  },
  {
    "name": "大埔路爌肉飯",
    "address": "彰化縣彰化市大埔路50號",
    "lat": null,
    "lng": null
  },
  {
    "name": "金馬路爌肉飯",
    "address": "彰化縣彰化市金馬路二段10號",
    "lat": null,
    "lng": null
  },
  {
    "name": "永興街爌肉飯",
    "address": "彰化縣彰化市永興街100號",
    "lat": null,
    "lng": null
  },
  {
    "name": "中正路(晚)爌肉飯",
    "address": "彰化縣彰化市中正路一段20號",
    "lat": null,
    "lng": null
  },
  {
    "name": "民權路爌肉飯",
    "address": "彰化縣彰化市民權路50號",
    "lat": null,
    "lng": null
  },
  {
    "name": "華山路無名爌肉飯",
    "address": "彰化縣彰化市華山路30號",
    "lat": null,
    "lng": null
  },
  {
    "name": "彰化交流道爌肉飯",
    "address": "彰化縣彰化市中山路三段50號",
    "lat": null,
    "lng": null
  },
  {
    "name": "A古爌肉飯",
    "address": "彰化縣彰化市民族路503號",
    "lat": null,
    "lng": null
  },
  {
    "name": "新町爌肉飯（愛哭仔）",
    "address": "彰化縣彰化市民族路376號",
    "lat": null,
    "lng": null
  },
  {
    "name": "謝米糕爌肉飯",
    "address": "彰化縣員林市大同路二段10號",
    "lat": null,
    "lng": null
  },
  {
    "name": "大廟口爌肉飯",
    "address": "彰化縣員林市惠民街10號",
    "lat": null,
    "lng": null
  },
  {
    "name": "員林市場爌肉飯",
    "address": "彰化縣員林市惠民街50號 (員林市場內)",
    "lat": null,
    "lng": null
  },
  {
    "name": "光明街爌肉飯",
    "address": "彰化縣員林市光明街20號",
    "lat": null,
    "lng": null
  },
  {
    "name": "員基醫院旁爌肉飯",
    "address": "彰化縣員林市中正路150號",
    "lat": null,
    "lng": null
  },
  {
    "name": "大同路爌肉飯",
    "address": "彰化縣員林市大同路一段200號",
    "lat": null,
    "lng": null
  },
  {
    "name": "員林大道爌肉飯",
    "address": "彰化縣員林市員林大道二段50號",
    "lat": null,
    "lng": null
  },
  {
    "name": "鹿港阿南師爌肉飯",
    "address": "彰化縣鹿港鎮中山路1號",
    "lat": null,
    "lng": null
  },
  {
    "name": "天后宮爌肉飯",
    "address": "彰化縣鹿港鎮天后宮廣場旁",
    "lat": null,
    "lng": null
  },
  {
    "name": "鹿港市場爌肉飯",
    "address": "彰化縣鹿港鎮民族路200號 (鹿港市場內)",
    "lat": null,
    "lng": null
  },
  {
    "name": "鹿港鎮公所爌肉飯",
    "address": "彰化縣鹿港鎮民權路100號",
    "lat": null,
    "lng": null
  },
  {
    "name": "鹿港體育場爌肉飯",
    "address": "彰化縣鹿港鎮體育場路30號",
    "lat": null,
    "lng": null
  },
  {
    "name": "老K爌肉飯",
    "address": "彰化縣北斗鎮斗苑路一段20號",
    "lat": null,
    "lng": null
  },
  {
    "name": "北斗市場爌肉飯",
    "address": "彰化縣北斗鎮斗苑路20號 (北斗市場內)",
    "lat": null,
    "lng": null
  },
  {
    "name": "北斗中華路爌肉飯",
    "address": "彰化縣北斗鎮中華路10號",
    "lat": null,
    "lng": null
  },
  {
    "name": "北斗美食街爌肉飯",
    "address": "彰化縣北斗鎮斗苑路300號",
    "lat": null,
    "lng": null
  },
  {
    "name": "北斗夜市爌肉飯",
    "address": "彰化縣北斗鎮夜市路1號",
    "lat": null,
    "lng": null
  },
  {
    "name": "溪湖阿讚豬腳爌肉飯",
    "address": "彰化縣溪湖鎮成功街5號",
    "lat": null,
    "lng": null
  },
  {
    "name": "蔡哥腿庫滷肉飯",
    "address": "彰化縣溪湖鎮太平街99號",
    "lat": null,
    "lng": null
  },
  {
    "name": "田中爌肉飯",
    "address": "彰化縣田中鎮復興路30號",
    "lat": null,
    "lng": null
  },
  {
    "name": "和美爌肉飯",
    "address": "彰化縣和美鎮彰美路五段20號",
    "lat": null,
    "lng": null
  },
  {
    "name": "伸港爌肉飯",
    "address": "彰化縣伸港鄉中山路50號",
    "lat": null,
    "lng": null
  },
  {
    "name": "芬園爌肉飯",
    "address": "彰化縣芬園鄉彰南路一段10號",
    "lat": null,
    "lng": null
  },
  {
    "name": "花壇爌肉飯",
    "address": "彰化縣花壇鄉中山路二段300號",
    "lat": null,
    "lng": null
  },
  {
    "name": "大村爌肉飯",
    "address": "彰化縣大村鄉中山路三段20號",
    "lat": null,
    "lng": null
  },
  {
    "name": "埔心爌肉飯",
    "address": "彰化縣埔心鄉員鹿路二段10號",
    "lat": null,
    "lng": null
  },
  {
    "name": "永靖爌肉飯",
    "address": "彰化縣永靖鄉永靖街10號",
    "lat": null,
    "lng": null
  },
  {
    "name": "社頭爌肉飯",
    "address": "彰化縣社頭鄉社斗路一段100號",
    "lat": null,
    "lng": null
  },
  {
    "name": "阿璋肉圓",
    "address": "彰化縣彰化市長安街144號",
    "lat": null,
    "lng": null
  },
  {
    "name": "阿泉肉圓",
    "address": "彰化縣彰化市民族路500號",
    "lat": null,
    "lng": null
  },
  {
    "name": "北門口肉圓",
    "address": "彰化縣彰化市中正路一段400號",
    "lat": null,
    "lng": null
  },
  {
    "name": "大竹肉圓",
    "address": "彰化縣彰化市大竹路10號",
    "lat": null,
    "lng": null
  },
  {
    "name": "成功肉圓",
    "address": "彰化縣彰化市成功路10號",
    "lat": null,
    "lng": null
  },
  {
    "name": "民族路肉圓",
    "address": "彰化縣彰化市民族路300號",
    "lat": null,
    "lng": null
  },
  {
    "name": "彰化火車站肉圓",
    "address": "彰化縣彰化市三民路1號",
    "lat": null,
    "lng": null
  },
  {
    "name": "大埔肉圓",
    "address": "彰化縣彰化市大埔路200號",
    "lat": null,
    "lng": null
  },
  {
    "name": "員林肉圓",
    "address": "彰化縣員林市大同路二段50號",
    "lat": null,
    "lng": null
  },
  {
    "name": "員林市場肉圓",
    "address": "彰化縣員林市惠民街30號 (員林市場內)",
    "lat": null,
    "lng": null
  },
  {
    "name": "大廟口肉圓",
    "address": "彰化縣員林市惠民街60號",
    "lat": null,
    "lng": null
  },
  {
    "name": "光明街肉圓",
    "address": "彰化縣員林市光明街50號",
    "lat": null,
    "lng": null
  },
  {
    "name": "員基醫院旁肉圓",
    "address": "彰化縣員林市中正路100號",
    "lat": null,
    "lng": null
  },
  {
    "name": "大同路肉圓",
    "address": "彰化縣員林市大同路一段100號",
    "lat": null,
    "lng": null
  },
  {
    "name": "鹿港肉圓",
    "address": "彰化縣鹿港鎮中山路50號",
    "lat": null,
    "lng": null
  },
  {
    "name": "天后宮肉圓",
    "address": "彰化縣鹿港鎮天后宮廣場旁",
    "lat": null,
    "lng": null
  },
  {
    "name": "鹿港市場肉圓",
    "address": "彰化縣鹿港鎮民族路150號 (鹿港市場內)",
    "lat": null,
    "lng": null
  },
  {
    "name": "北斗肉圓",
    "address": "彰化縣北斗鎮斗苑路一段50號",
    "lat": null,
    "lng": null
  },
  {
    "name": "北斗奠安宮肉圓",
    "address": "彰化縣北斗鎮宮前街50號",
    "lat": null,
    "lng": null
  },
  {
    "name": "北斗市場肉圓",
    "address": "彰化縣北斗鎮斗苑路100號 (北斗市場內)",
    "lat": null,
    "lng": null
  },
  {
    "name": "北斗中華路肉圓",
    "address": "彰化縣北斗鎮中華路50號",
    "lat": null,
    "lng": null
  },
  {
    "name": "北斗夜市肉圓",
    "address": "彰化縣北斗鎮夜市路50號",
    "lat": null,
    "lng": null
  },
  {
    "name": "溪湖肉圓",
    "address": "彰化縣溪湖鎮員鹿路三段365號",
    "lat": null,
    "lng": null
  },
  {
    "name": "田中肉圓",
    "address": "彰化縣田中鎮復興路30號",
    "lat": null,
    "lng": null
  },
  {
    "name": "肉圓張",
    "address": "彰化縣埔心鄉員鹿路二段365號",
    "lat": null,
    "lng": null
  },
  {
    "name": "社頭菜市場肉圓",
    "address": "彰化縣社頭鄉社頭市場內",
    "lat": null,
    "lng": null
  },
  {
    "name": "伸港肉圓",
    "address": "彰化縣伸港鄉中山路10號",
    "lat": null,
    "lng": null
  },
  {
    "name": "和美肉圓",
    "address": "彰化縣和美鎮彰美路五段20號",
    "lat": null,
    "lng": null
  },
  {
    "name": "過溝仔肉圓王",
    "address": "彰化縣彰化市彰美路一段58-4號",
    "lat": null,
    "lng": null
  },
  {
    "name": "正彰化肉圓",
    "address": "彰化縣彰化市陳稜路203號",
    "lat": 24.07944,
    "lng": 120.539192
  }
]